[
  {
    "location_id": "6512.0_CT",
    "zip_code": 6512.0,
    "city": "East Haven",
    "county": "New Haven",
    "latitude": 41.2638,
    "longitude": -72.8868,
    "climate_zone": 4
  },
  {
    "location_id": "6256.0_CT",
    "zip_code": 6256.0,
    "city": "North Windham",
    "county": "Windham",
    "latitude": 41.7425,
    "longitude": -72.1825,
    "climate_zone": 4
  },
  {
    "location_id": "6810_CT",
    "zip_code": 6810,
    "city": "Danbury",
    "county": "Fairfield",
    "latitude": 41.3715,
    "longitude": -73.4822,
    "climate_zone": 4
  },
  {
    "location_id": "6478_CT",
    "zip_code": 6478,
    "city": "Oxford",
    "county": "New Haven",
    "latitude": 41.4741,
    "longitude": -73.1354,
    "climate_zone": 4
  },
  {
    "location_id": "6096.0_CT",
    "zip_code": 6096.0,
    "city": "Windsor Locks",
    "county": "Hartford",
    "latitude": 41.9389,
    "longitude": -72.6832,
    "climate_zone": 4
  },
  {
    "location_id": "6492_CT",
    "zip_code": 6492,
    "city": "Wallingford",
    "county": "New Haven",
    "latitude": 41.5097,
    "longitude": -72.8278,
    "climate_zone": 4
  },
  {
    "location_id": "6615_CT",
    "zip_code": 6615,
    "city": "Stratford",
    "county": "Fairfield",
    "latitude": 41.1642,
    "longitude": -73.1266,
    "climate_zone": 4
  },
  {
    "location_id": "6412_CT",
    "zip_code": 6412,
    "city": "Chester",
    "county": "Middlesex",
    "latitude": 41.3839,
    "longitude": -72.5059,
    "climate_zone": 4
  },
  {
    "location_id": "6114.0_CT",
    "zip_code": 6114.0,
    "city": "Hartford",
    "county": "Hartford",
    "latitude": 41.7367,
    "longitude": -72.6494,
    "climate_zone": 4
  },
  {
    "location_id": "6340_CT",
    "zip_code": 6340,
    "city": "Groton",
    "county": "New London",
    "latitude": 41.3279,
    "longitude": -72.0489,
    "climate_zone": 4
  }
]