[
  {
    "location_id": "39459_MS",
    "zip_code": 39459,
    "city": "Moselle",
    "county": "Jones",
    "latitude": 31.4671,
    "longitude": -89.3371,
    "climate_zone": 2
  },
  {
    "location_id": "39180_MS",
    "zip_code": 39180,
    "city": "Vicksburg",
    "county": "Warren",
    "latitude": 32.2393,
    "longitude": -90.9284,
    "climate_zone": 2
  },
  {
    "location_id": "39705.0_MS",
    "zip_code": 39705.0,
    "city": "Columbus",
    "county": "Lowndes",
    "latitude": 33.6438,
    "longitude": -88.4438,
    "climate_zone": 2
  },
  {
    "location_id": "39705_MS",
    "zip_code": 39705,
    "city": "Columbus",
    "county": "Lowndes",
    "latitude": 33.6438,
    "longitude": -88.4438,
    "climate_zone": 2
  },
  {
    "location_id": "39730_MS",
    "zip_code": 39730,
    "city": "Aberdeen",
    "county": "Monroe",
    "latitude": 33.8738,
    "longitude": -88.4897,
    "climate_zone": 2
  },
  {
    "location_id": "39701_MS",
    "zip_code": 39701,
    "city": "Columbus",
    "county": "Lowndes",
    "latitude": 33.4503,
    "longitude": -88.5914,
    "climate_zone": 2
  },
  {
    "location_id": "38801_MS",
    "zip_code": 38801,
    "city": "Tupelo",
    "county": "Lee",
    "latitude": 34.2622,
    "longitude": -88.7713,
    "climate_zone": 3
  },
  {
    "location_id": "39648_MS",
    "zip_code": 39648,
    "city": "Mccomb",
    "county": "Pike",
    "latitude": 31.1784,
    "longitude": -90.4719,
    "climate_zone": 2
  },
  {
    "location_id": "38930_MS",
    "zip_code": 38930,
    "city": "Greenwood",
    "county": "Carroll",
    "latitude": 33.4943,
    "longitude": -90.0847,
    "climate_zone": 2
  },
  {
    "location_id": "39556_MS",
    "zip_code": 39556,
    "city": "Kiln",
    "county": "Hancock",
    "latitude": 30.3678,
    "longitude": -89.4547,
    "climate_zone": 2
  },
  {
    "location_id": "39563_MS",
    "zip_code": 39563,
    "city": "Moss Point",
    "county": "Jackson",
    "latitude": 30.4628,
    "longitude": -88.5292,
    "climate_zone": 2
  },
  {
    "location_id": "38834_MS",
    "zip_code": 38834,
    "city": "Corinth",
    "county": "Alcorn",
    "latitude": 34.915,
    "longitude": -88.6035,
    "climate_zone": 3
  },
  {
    "location_id": "39401_MS",
    "zip_code": 39401,
    "city": "Hattiesburg",
    "county": "Forrest",
    "latitude": 31.2694,
    "longitude": -89.2561,
    "climate_zone": 2
  },
  {
    "location_id": "39307_MS",
    "zip_code": 39307,
    "city": "Meridian",
    "county": "Lauderdale",
    "latitude": 32.3347,
    "longitude": -88.7511,
    "climate_zone": 2
  },
  {
    "location_id": "38703_MS",
    "zip_code": 38703,
    "city": "Greenville",
    "county": "Washington",
    "latitude": 33.4829,
    "longitude": -90.9856,
    "climate_zone": 2
  },
  {
    "location_id": "38654_MS",
    "zip_code": 38654,
    "city": "Olive Branch",
    "county": "DeSoto",
    "latitude": 34.9787,
    "longitude": -89.7869,
    "climate_zone": 3
  },
  {
    "location_id": "39120_MS",
    "zip_code": 39120,
    "city": "Natchez",
    "county": "Adams",
    "latitude": 31.6159,
    "longitude": -91.2972,
    "climate_zone": 2
  },
  {
    "location_id": "38732_MS",
    "zip_code": 38732,
    "city": "Cleveland",
    "county": "Bolivar",
    "latitude": 33.7611,
    "longitude": -90.7579,
    "climate_zone": 2
  },
  {
    "location_id": "38655.0_MS",
    "zip_code": 38655.0,
    "city": "Oxford",
    "county": "Lafayette",
    "latitude": 34.3843,
    "longitude": -89.5368,
    "climate_zone": 3
  },
  {
    "location_id": "38645_MS",
    "zip_code": 38645,
    "city": "Lyon",
    "county": "Coahoma",
    "latitude": 34.2997,
    "longitude": -90.5123,
    "climate_zone": 3
  },
  {
    "location_id": "38676_MS",
    "zip_code": 38676,
    "city": "Tunica",
    "county": "Tunica",
    "latitude": 34.6811,
    "longitude": -90.3467,
    "climate_zone": 3
  },
  {
    "location_id": "39534_MS",
    "zip_code": 39534,
    "city": "Biloxi",
    "county": "Harrison",
    "latitude": 30.4104,
    "longitude": -88.9244,
    "climate_zone": 2
  },
  {
    "location_id": "39232_MS",
    "zip_code": 39232,
    "city": "Flowood",
    "county": "Rankin",
    "latitude": 32.3197,
    "longitude": -90.0775,
    "climate_zone": 2
  },
  {
    "location_id": "39309_MS",
    "zip_code": 39309,
    "city": "Meridian",
    "county": "Lauderdale",
    "latitude": 32.5521,
    "longitude": -88.5556,
    "climate_zone": 2
  },
  {
    "location_id": "39213.0_MS",
    "zip_code": 39213.0,
    "city": "Jackson",
    "county": "Hinds",
    "latitude": 32.3348,
    "longitude": -90.2225,
    "climate_zone": 2
  },
  {
    "location_id": "39501_MS",
    "zip_code": 39501,
    "city": "Gulfport",
    "county": "Harrison",
    "latitude": 30.4119,
    "longitude": -89.0808,
    "climate_zone": 2
  },
  {
    "location_id": "39759_MS",
    "zip_code": 39759,
    "city": "Starkville",
    "county": "Oktibbeha",
    "latitude": 33.4331,
    "longitude": -88.8486,
    "climate_zone": 2
  },
  {
    "location_id": "39041.0_MS",
    "zip_code": 39041.0,
    "city": "Bolton",
    "county": "Hinds",
    "latitude": 32.3033,
    "longitude": -90.4085,
    "climate_zone": 2
  },
  {
    "location_id": "38827.0_MS",
    "zip_code": 38827.0,
    "city": "Belmont",
    "county": "Tishomingo",
    "latitude": 34.4917,
    "longitude": -88.2011,
    "climate_zone": 3
  },
  {
    "location_id": "39601.0_MS",
    "zip_code": 39601.0,
    "city": "Brookhaven",
    "county": "Lincoln",
    "latitude": 31.6058,
    "longitude": -90.4093,
    "climate_zone": 2
  }
]