[
  {
    "location_id": "8332_NJ",
    "zip_code": 8332,
    "city": "Millville",
    "county": "Cumberland",
    "latitude": 39.3662,
    "longitude": -75.0778,
    "climate_zone": 3
  },
  {
    "location_id": "7727_NJ",
    "zip_code": 7727,
    "city": "Farmingdale",
    "county": "Monmouth",
    "latitude": 40.1822,
    "longitude": -74.1207,
    "climate_zone": 4
  },
  {
    "location_id": "8721_NJ",
    "zip_code": 8721,
    "city": "Bayville",
    "county": "Ocean",
    "latitude": 39.9275,
    "longitude": -74.2924,
    "climate_zone": 3
  },
  {
    "location_id": "7860_NJ",
    "zip_code": 7860,
    "city": "Newton",
    "county": "Sussex",
    "latitude": 41.0093,
    "longitude": -74.7363,
    "climate_zone": 4
  },
  {
    "location_id": "8628_NJ",
    "zip_code": 8628,
    "city": "Trenton",
    "county": "Mercer",
    "latitude": 40.2768,
    "longitude": -74.8159,
    "climate_zone": 4
  },
  {
    "location_id": "7004_NJ",
    "zip_code": 7004,
    "city": "Fairfield",
    "county": "Essex",
    "latitude": 40.8764,
    "longitude": -74.2828,
    "climate_zone": 4
  },
  {
    "location_id": "8234_NJ",
    "zip_code": 8234,
    "city": "Egg Harbor Township",
    "county": "Atlantic",
    "latitude": 39.452,
    "longitude": -74.567,
    "climate_zone": 3
  },
  {
    "location_id": "7960.0_NJ",
    "zip_code": 7960.0,
    "city": "Morristown",
    "county": "Morris",
    "latitude": 40.7989,
    "longitude": -74.4163,
    "climate_zone": 4
  },
  {
    "location_id": "7921_NJ",
    "zip_code": 7921,
    "city": "Bedminster",
    "county": "Somerset",
    "latitude": 40.624,
    "longitude": -74.669,
    "climate_zone": 4
  },
  {
    "location_id": "7114_NJ",
    "zip_code": 7114,
    "city": "Newark",
    "county": "Union",
    "latitude": 40.6827,
    "longitude": -74.1693,
    "climate_zone": 4
  },
  {
    "location_id": "8511_NJ",
    "zip_code": 8511,
    "city": "Cookstown",
    "county": "Burlington",
    "latitude": 40.0156,
    "longitude": -74.5917,
    "climate_zone": 4
  },
  {
    "location_id": "7608_NJ",
    "zip_code": 7608,
    "city": "Teterboro",
    "county": "Bergen",
    "latitude": 40.859,
    "longitude": -74.0562,
    "climate_zone": 4
  },
  {
    "location_id": "8733_NJ",
    "zip_code": 8733,
    "city": "Lakehurst",
    "county": "Ocean",
    "latitude": 40.0366,
    "longitude": -74.3525,
    "climate_zone": 4
  },
  {
    "location_id": "8242_NJ",
    "zip_code": 8242,
    "city": "Rio Grande",
    "county": "Cape May",
    "latitude": 39.0108,
    "longitude": -74.9079,
    "climate_zone": 3
  },
  {
    "location_id": "7036_NJ",
    "zip_code": 7036,
    "city": "Linden",
    "county": "Union",
    "latitude": 40.6162,
    "longitude": -74.2451,
    "climate_zone": 4
  },
  {
    "location_id": "7461_NJ",
    "zip_code": 7461,
    "city": "Wantage",
    "county": "Sussex",
    "latitude": 41.1992,
    "longitude": -74.6259,
    "climate_zone": 4
  },
  {
    "location_id": "8048_NJ",
    "zip_code": 8048,
    "city": "Lumberton",
    "county": "Burlington",
    "latitude": 39.9408,
    "longitude": -74.8407,
    "climate_zone": 3
  }
]