[
  {
    "location_id": "57006_SD",
    "zip_code": 57006,
    "city": "Brookings",
    "county": "Brookings",
    "latitude": 44.3048,
    "longitude": -96.8169,
    "climate_zone": 4
  },
  {
    "location_id": "57580_SD",
    "zip_code": 57580,
    "city": "Winner",
    "county": "Tripp",
    "latitude": 43.3906,
    "longitude": -99.8422,
    "climate_zone": 4
  },
  {
    "location_id": "57720_SD",
    "zip_code": 57720,
    "city": "Buffalo",
    "county": "Harding",
    "latitude": 45.6044,
    "longitude": -103.5464,
    "climate_zone": 5
  },
  {
    "location_id": "57262_SD",
    "zip_code": 57262,
    "city": "Sisseton",
    "county": "Roberts",
    "latitude": 45.6689,
    "longitude": -96.9914,
    "climate_zone": 5
  },
  {
    "location_id": "57501.0_SD",
    "zip_code": 57501.0,
    "city": "Pierre",
    "county": "Hughes",
    "latitude": 44.3827,
    "longitude": -100.286,
    "climate_zone": 4
  },
  {
    "location_id": "57325_SD",
    "zip_code": 57325,
    "city": "Chamberlain",
    "county": "Brule",
    "latitude": 43.7659,
    "longitude": -99.3216,
    "climate_zone": 4
  },
  {
    "location_id": "57703_SD",
    "zip_code": 57703,
    "city": "Rapid City",
    "county": "Pennington",
    "latitude": 44.0459,
    "longitude": -103.0544,
    "climate_zone": 4
  },
  {
    "location_id": "57401.0_SD",
    "zip_code": 57401.0,
    "city": "Aberdeen",
    "county": "Brown",
    "latitude": 45.4436,
    "longitude": -98.4138,
    "climate_zone": 5
  },
  {
    "location_id": "57601_SD",
    "zip_code": 57601,
    "city": "Mobridge",
    "county": "Walworth",
    "latitude": 45.5464,
    "longitude": -100.4078,
    "climate_zone": 5
  },
  {
    "location_id": "57626.0_SD",
    "zip_code": 57626.0,
    "city": "Faith",
    "county": "Meade",
    "latitude": 45.0326,
    "longitude": -102.02,
    "climate_zone": 5
  },
  {
    "location_id": "57042_SD",
    "zip_code": 57042,
    "city": "Madison",
    "county": "Lake",
    "latitude": 44.016,
    "longitude": -97.086,
    "climate_zone": 4
  },
  {
    "location_id": "57104_SD",
    "zip_code": 57104,
    "city": "Sioux Falls",
    "county": "Minnehaha",
    "latitude": 43.5769,
    "longitude": -96.7536,
    "climate_zone": 4
  },
  {
    "location_id": "57350_SD",
    "zip_code": 57350,
    "city": "Huron",
    "county": "Beadle",
    "latitude": 44.3852,
    "longitude": -98.2286,
    "climate_zone": 4
  },
  {
    "location_id": "57770_SD",
    "zip_code": 57770,
    "city": "Pine Ridge",
    "county": "Oglala Lakota",
    "latitude": 43.0206,
    "longitude": -102.5183,
    "climate_zone": 4
  },
  {
    "location_id": "57783_SD",
    "zip_code": 57783,
    "city": "Spearfish",
    "county": "Lawrence",
    "latitude": 44.4804,
    "longitude": -103.788,
    "climate_zone": 4
  },
  {
    "location_id": "57201_SD",
    "zip_code": 57201,
    "city": "Watertown",
    "county": "Codington",
    "latitude": 44.9047,
    "longitude": -97.1494,
    "climate_zone": 4
  },
  {
    "location_id": "57730.0_SD",
    "zip_code": 57730.0,
    "city": "Custer",
    "county": "Custer",
    "latitude": 43.7331,
    "longitude": -103.6114,
    "climate_zone": 4
  },
  {
    "location_id": "57301_SD",
    "zip_code": 57301,
    "city": "Mitchell",
    "county": "Davison",
    "latitude": 43.7748,
    "longitude": -98.0386,
    "climate_zone": 4
  },
  {
    "location_id": "57078.0_SD",
    "zip_code": 57078.0,
    "city": "Yankton",
    "county": "Yankton",
    "latitude": 42.9167,
    "longitude": -97.3859,
    "climate_zone": 4
  },
  {
    "location_id": "57567_SD",
    "zip_code": 57567,
    "city": "Philip",
    "county": "Haakon",
    "latitude": 44.0511,
    "longitude": -101.6011,
    "climate_zone": 4
  },
  {
    "location_id": "57706_SD",
    "zip_code": 57706,
    "city": "Ellsworth AFB",
    "county": "Meade",
    "latitude": 44.1451,
    "longitude": -103.1036,
    "climate_zone": 4
  },
  {
    "location_id": "57701_SD",
    "zip_code": 57701,
    "city": "Rapid City",
    "county": "Pennington",
    "latitude": 44.0727,
    "longitude": -103.2108,
    "climate_zone": 4
  },
  {
    "location_id": "57638_SD",
    "zip_code": 57638,
    "city": "Lemmon",
    "county": "Perkins",
    "latitude": 45.9167,
    "longitude": -102.1667,
    "climate_zone": 5
  },
  {
    "location_id": "57717.0_SD",
    "zip_code": 57717.0,
    "city": "Belle Fourche",
    "county": "Butte",
    "latitude": 44.7342,
    "longitude": -103.862,
    "climate_zone": 4
  }
]